average,bypass,deaths,density,injuries,location,Latitude,longitude,outlier_mask,yield
123772,0,43800,1000,68110,"Fargo, ND-MN United States  ",46.8474456,-96.7711558,FALSE,100
123772,0,35830,1000,39720,Lahti Finland  ,60.9838761,25.6561814,FALSE,100
123772,0,30740,1000,43180,"Medford, OR United States  ",42.3264181,-122.8718605,FALSE,100
123772,0,18440,1000,28760,"Nanaimo, BC Canada  ",49.1637594,-123.9379719,FALSE,100
123772,0,14840,1000,46150,"Victorville, CA United States  ",34.5361067,-117.2911565,FALSE,100
123772,0,23020,1000,158540,Arabia Ad-Dammam Saudi  ,26.234719,50.0081712,FALSE,100
123772,0,29750,1000,52180,"Indio, CA United States  ",33.7192808,-116.2188054,FALSE,100
123772,0,46550,1000,50860,"Bloomington, IN United States  ",39.1670396,-86.5342881,FALSE,100
123772,0,30950,1000,38640,"Peterborough, ON Canada  ",44.3048009,-78.3199496,FALSE,100
123772,0,35550,1000,69960,"Fort Collins, CO United States  ",40.5508527,-105.0668085,FALSE,100
123772,0,33050,1000,45180,"Norman, OK United States  ",35.2225717,-97.4394816,FALSE,100
123772,0,26730,1000,43040,"Cairns, QLD Australia  ",-16.9206657,145.7721854,FALSE,100
123772,0,33140,1000,43760,"St. Cloud, MN United States  ",45.5616075,-94.1642004,FALSE,100
123772,0,14160,1000,39230,"Kelowna,BC Canada  ",49.889326,-119.498291,FALSE,100
123772,0,72930,1000,147010,"Rochester, NY United States  ",43.157285,-77.615214,FALSE,100
123772,0,54920,1000,114740,"St. Louis, MO United States",38.6268039,-90.1994097,FALSE,100
123772,0,21410,1000,29480,"Kailua, HI United States  ",21.393623,-157.743759,FALSE,100
123772,0,82560,1000,96800,Saint-Etienne France  ,45.4401467,4.3873058,FALSE,100
123772,0,51780,1000,69410,Dunkerque France  ,51.0347708,2.3772525,FALSE,100
123772,0,67090,1000,116930,"Cleveland, OH United States  ",41.5051613,-81.6934446,FALSE,100
123772,0,39710,1000,54440,"Barrie, ON Canada  ",44.3893113,-79.6901736,FALSE,100
123772,0,88900,1000,182620,"Detroit, MI United States  ",42.3315509,-83.0466403,TRUE,100
123772,0,44360,1000,63770,"Erie, PA United States  ",42.1294712,-80.0852695,FALSE,100
123772,0,25990,1000,53960,"Killeen, TX United States  ",31.1171441,-97.727796,FALSE,100
123772,0,51280,1000,84330,"Eugene, OR United States  ",44.0505054,-123.0950506,FALSE,100
123772,0,33130,1000,48450,"Greeley, CO United States  ",40.4233142,-104.7091322,FALSE,100
123772,0,46790,1000,180240,"Brownsville, TX United States  ",25.9140256,-97.4890856,FALSE,100
123772,0,65350,1000,156040,"Buffalo, NY United States  ",42.8867166,-78.8783922,FALSE,100
123772,0,100700,1000,129490,Grenoble France  ,45.1875602,5.7357819,TRUE,100
123772,0,54500,1000,100190,"Reno, NV-CA United States  ",39.52927,-119.8136744,FALSE,100
221315,0,60180,2000,96320,Arnhem Netherlands  ,52.0056642,5.876234508,FALSE,100
221315,0,75740,2000,139300,Khabarovsk Russia  ,48.481403,135.076935,FALSE,100
221315,0,33590,2000,18160,Banjul Gambia  ,13.44134645,-16.56247133,FALSE,100
221315,0,91050,2000,122770,Ghent Belgium  ,51.0538286,3.7250121,FALSE,100
221315,0,72920,2000,136190,Mito Japan  ,36.3657792,140.4713933,FALSE,100
221315,0,78970,2000,95600,Braunschweig Germany  ,52.2646577,10.5236066,FALSE,100
221315,0,134110,2000,290470,Donetsk Ukraine  ,48.0158753,37.8013407,FALSE,100
221315,0,391870,2000,993190,"New York, NY-NJ-CT United States  ",,,TRUE,100
221315,0,123300,2000,304390,Porto Portugal  ,37.239243,-121.8767664,FALSE,100
221315,0,43910,2000,58980,Hamilton New Zealand  ,-37.7879076,175.2818068,FALSE,100
221315,0,31370,2000,42620,"White Rock, BC Canada  ",49.0241671,-122.8008415,FALSE,100
221315,0,49920,2000,111050,Helsinki Finland  ,60.1674086,24.9425683,FALSE,100
221315,0,32770,2000,38700,"Luziana, Brazil",-8.8072441,-63.862731,FALSE,100
221315,0,59430,2000,100870,Port of Spain Trinidad & Tobago  ,10.6572678,-61.5180173,FALSE,100
221315,0,36200,2000,39040,Orebro Sweden  ,59.2747287,15.2151181,FALSE,100
221315,0,68730,2000,276200,"San Francisco-San Jose, CA United States",,,FALSE,100
221315,0,183230,2000,183990,Arabia Khamis Mushayt Saudi  ,,,FALSE,100
221315,0,60290,2000,128630,Christchurch New Zealand  ,-43.51047865,172.5811305,FALSE,100
221315,0,90890,2000,150550,Liege Belgium  ,50.6451381,5.5734203,FALSE,100
221315,0,22590,2000,27040,Kristiansand Norway  ,58.14615,7.9957333,FALSE,100
221315,0,34050,2000,46690,Helsingborg Sweden  ,56.0441984,12.7040684,FALSE,100
221315,0,57410,2000,97170,"Oxnard, CA United States  ",34.1976308,-119.1803818,FALSE,100
221315,0,65190,2000,91140,Magdeburg Germany  ,52.1315889,11.6399609,FALSE,100
221315,0,91260,2000,185890,"Miami, FL United States  ",25.7742658,-80.1936589,FALSE,100
221315,0,21050,2000,31450,Jonkoping Sweden  ,57.7825634,14.165719,FALSE,100
221315,0,34500,2000,31640,Palmerston North New Zealand  ,-40.356317,175.6112388,FALSE,100
221315,0,20320,2000,24180,Hastings New Zealand  ,-39.6430115,176.8447684,FALSE,100
221315,0,58630,2000,72640,Reims France  ,49.2577886,4.031926,FALSE,100
221315,0,121510,2000,162090,"Honolulu, HI United States  ",21.304547,-157.8556764,FALSE,100
221315,0,84710,2000,212810,"Ottawa, ON-QC Canada  ",,,FALSE,100
316756.66,0,65710,3000,220040,Johannesburg-East Rand South Africa  ,,,FALSE,100
316756.66,0,28510,3000,96510,"Sanya, HA China  ",18.2534658,109.5034392,FALSE,100
316756.66,0,152070,3000,280470,Marseille France  ,43.2961743,5.3699525,FALSE,100
316756.66,0,150330,3000,266930,Samarkand Uzbekistan  ,39.6547869,66.9758026,FALSE,100
316756.66,0,61270,3000,135090,Kurashiki Japan  ,34.5850791,133.7719957,FALSE,100
316756.66,0,158890,3000,170810,Misratah Libya  ,32.3745318,15.0904886,FALSE,100
316756.66,0,215720,3000,403490,Dubai United Arab Emirates  ,25.0750095,55.18876088,FALSE,100
316756.66,0,146870,3000,215860,Nuremberg Germany  ,49.453872,11.077298,TRUE,100
316756.66,0,162880,3000,321430,Amsterdam Netherlands  ,52.3745403,4.897975506,FALSE,100
316756.66,0,95770,3000,269410,Doha Qatar  ,25.2856329,51.5264162,FALSE,100
316756.66,0,168800,3000,495290,Harare Zimbabwe,-17.831773,31.045686,FALSE,100
316756.66,0,146350,3000,219070,Yazd Iran  ,31.8886686,54.3641264,FALSE,100
316756.66,0,54960,3000,56640,Crawley United Kingdom  ,51.1103444,-0.1801094,FALSE,100
316756.66,0,34030,3000,31370,Lowestoft United Kingdom  ,52.4766308,1.7537638,FALSE,100
316756.66,0,244920,3000,305630,Ipoh Malaysia  ,4.5986817,101.0900236,FALSE,100
316756.66,0,80990,3000,196990,"Tongling, AH China  ",30.9345628,117.8089039,FALSE,100
316756.66,0,25970,3000,42180,Bridgend United Kingdom  ,51.55696625,-3.564090929,FALSE,100
316756.66,0,56430,3000,124830,"Xucheng (Zaozhuang), SD China  ",,,FALSE,100
316756.66,0,93460,3000,219800,Katowice-Gliwice-Tychy Poland  ,,,FALSE,100
316756.66,0,95750,3000,284140,Dnipropetrovsk Ukraine  ,48.4680221,35.0417711,FALSE,100
316756.66,0,88650,3000,236100,Stuttgart Germany  ,48.7784485,9.1800132,FALSE,100
316756.66,0,64600,3000,180420,Samara Russia  ,53.198627,50.113987,FALSE,100
316756.66,0,9620,3000,3990,Nuuk Greenland  ,64.175029,-51.7355386,FALSE,100
316756.66,0,73160,3000,138990,Bergamo Italy  ,45.6944947,9.6698727,FALSE,100
316756.66,0,356470,3000,515620,Beirut Lebanon  ,33.8959203,35.47843,FALSE,100
316756.66,0,147120,3000,295640,Copenhagen Denmark  ,55.6867243,12.5700724,FALSE,100
316756.66,0,35870,3000,32410,Macclesfield United Kingdom  ,53.2606635,-2.1255158,FALSE,100
316756.66,0,20790,3000,157940,Bloemfontein South Africa  ,-29.116395,26.215496,FALSE,100
316756.66,0,119960,3000,133890,"Wuzhou, GX China  ",,,FALSE,100
316756.66,0,148840,3000,146960,Arabia Buraydah Saudi  ,26.1503666,43.6625958,FALSE,100
253633.33,0,39390,4000,39500,Darlington United Kingdom  ,54.53525645,-1.552942975,FALSE,100
253633.33,0,35590,4000,45460,Lancaster United Kingdom,54.0484068,-2.7990345,FALSE,100
253633.33,0,57170,4000,84480,Swindon United Kingdom  ,51.5613683,-1.7856853,FALSE,100
253633.33,0,261030,4000,234220,Libreville Gabon  ,0.390002,9.454001,FALSE,100
253633.33,0,86130,4000,146380,Belfast United Kingdom  ,54.5964411,-5.9302761,FALSE,100
253633.33,0,193220,4000,236870,Krasnodar Russia  ,45.0352566,38.9764814,FALSE,100
253633.33,0,47760,4000,79510,Doncaster United Kingdom  ,53.5227681,-1.1335312,FALSE,100
253633.33,0,320100,4000,687050,Kuala Lumpur Malaysia  ,3.1516636,101.6943028,TRUE,100
253633.33,0,95720,4000,151420,Coventry United Kingdom  ,52.4081812,-1.510477,FALSE,100
253633.33,0,48030,4000,37610,Hartlepool United Kingdom  ,54.6857276,-1.2093696,FALSE,100
253633.33,0,139390,4000,246080,Zagreb Croatia  ,45.813177,15.977048,FALSE,100
253633.33,0,35720,4000,36180,Southport United Kingdom  ,53.6475988,-3.0041751,FALSE,100
253633.33,0,33910,4000,45110,Wellingborough United Kingdom  ,52.2984002,-0.6911344,FALSE,100
253633.33,0,299550,4000,473550,Ciudad Juarez Mexico  ,31.7097961,-106.4555818,FALSE,100
253633.33,0,51770,4000,122770,Bournemouth/Poole United Kingdom  ,50.74467035,-1.857980903,FALSE,100
253633.33,0,222740,4000,289920,Lviv Ukraine  ,49.841952,24.0315921,FALSE,100
253633.33,0,29320,4000,62150,Berezniki Russia  ,59.4084171,56.8036958,FALSE,100
253633.33,0,49650,4000,54240,Exeter United Kingdom  ,50.725562,-3.5269108,FALSE,100
253633.33,0,33410,4000,85810,Accrington/Rossendale United Kingdom  ,53.7489392,-2.354510169,FALSE,100
253633.33,0,92380,4000,214650,Newcastle upon Tyne United Kingdom  ,54.9738474,-1.6131572,FALSE,100
253633.33,0,36400,4000,34660,Clacton-on-Sea United Kingdom  ,51.7883997,1.1527865,FALSE,100
253633.33,0,31780,4000,50300,Redditch United Kingdom  ,52.3057655,-1.9417444,FALSE,100
253633.33,0,57700,4000,52220,Bedford United Kingdom  ,52.1363806,-0.4675041,FALSE,100
253633.33,0,35000,4000,40030,Royal Tunbridge Wells United Kingdom  ,51.1371483,0.2673446,FALSE,100
253633.33,0,58160,4000,115570,Wigan United Kingdom,53.5457188,-2.6264624,FALSE,100
253633.33,0,164820,4000,201850,"Cangzhou, HEB China  ",,,FALSE,100
253633.33,0,223860,4000,268410,Saltillo Mexico  ,25.4230425,-100.9927509,FALSE,100
253633.33,0,115130,4000,211460,"Thoothukkudi, TN India  ",,,FALSE,100
253633.33,0,59860,4000,68520,Cambridge United Kingdom  ,52.2034823,0.1235817,FALSE,100
253633.33,0,75840,4000,162490,Niigata Japan  ,37.6452283,138.7669125,FALSE,100
422755,0,359650,5000,506130,"Ningbo, ZJ China  ",29.9309326,121.9292815,FALSE,100
422755,0,58250,5000,74270,York United Kingdom  ,53.9590555,-1.0815361,FALSE,100
422755,0,162020,5000,255700,"Yulin, GX China  ",,,FALSE,100
422755,0,143910,5000,165900,Ceboksary Russia  ,56.1307195,47.2449597,FALSE,100
422755,0,151490,5000,305820,Bishkek Kyrgyzstan  ,42.8767446,74.6069949,FALSE,100
422755,0,949090,5000,1050940,"Kunming, YN China  ",,,FALSE,100
422755,0,50550,5000,66400,"Bijie, GZ China  ",,,FALSE,100
422755,0,46220,5000,40520,"Chizhou, AN China  ",30.6671088,117.4859885,TRUE,100
422755,0,224210,5000,301210,Ulaanbaatar Mongolia  ,47.949809,106.9667242,FALSE,100
422755,0,185160,5000,190600,"Neijiang, SC China  ",,,FALSE,100
422755,0,139700,5000,191360,"Liaoyuan, JL China  ",,,FALSE,100
422755,0,68660,5000,145180,"Zhangjiaggang-Jiangyin, (Suzhou-Wuxi) JS China  ",,,FALSE,100
422755,0,214720,5000,560340,Monterrey Mexico  ,-33.5258224,-70.5807738,FALSE,100
422755,0,158940,5000,196310,Oaxaca,17,-96.5,FALSE,100
422755,0,117030,5000,234790,Mexicali Mexico  ,32.6248622,-115.448325,FALSE,100
422755,0,88320,5000,61510,"Shizuishan, NX China  ",,,FALSE,100
422755,0,104650,5000,135720,"Dongying, SD China  ",,,FALSE,100
422755,0,158890,5000,314870,Santos Brazil  ,-23.960833,-46.333889,FALSE,100
422755,0,150570,5000,230220,Uberlandia Brazil  ,-18.9188041,-48.2767837,FALSE,100
422755,0,78220,5000,86500,Murmansk Russia  ,68.970665,33.07497,FALSE,100
422755,0,196900,5000,354590,Barquisimeto,10.0740372,-69.3215667,FALSE,100
422755,0,120190,5000,189790,Leicester United Kingdom  ,52.6361398,-1.1330789,FALSE,100
422755,0,81310,5000,150980,Cardiff United Kingdom  ,51.4816546,-3.1791934,FALSE,100
422755,0,143370,5000,195980,"Shaoguan, GD China  ",,,FALSE,100
422755,0,90330,5000,107920,Luton United Kingdom  ,51.89107295,-0.423030408,FALSE,100
422755,0,47900,5000,85400,Oxford United Kingdom  ,51.7520131,-1.2578499,FALSE,100
422755,0,502280,5000,684990,"Wuxi, JS China  ",,,FALSE,100
422755,0,164520,5000,314230,Joao Pessoa Brazil  ,-7.1215981,-34.882028,FALSE,100
422755,0,108410,5000,175950,Tomsk Russia  ,56.488712,84.952324,FALSE,100
422755,0,98730,5000,144340,Wakayama Japan  ,33.8070292,135.5930743,FALSE,100
614131,0,158890,6000,314870,Santos Brazil  ,-23.960833,-46.333889,FALSE,100
614131,0,45090,6000,232840,"Liaoyang, LN China  ",41.273887,123.1693463,FALSE,100
614131,0,117970,6000,540650,Rawalpindi-Islamabad Pakistan  ,33.5914237,73.0535122,FALSE,100
614131,0,214360,6000,525780,Bucharest Romania  ,44.4361414,26.1027202,FALSE,100
614131,0,168170,6000,219770,"Patiala, HR India  ",30.3899387,76.7803244,FALSE,100
614131,0,227820,6000,418950,tianshan Urumqi,43.7924631,87.6301682,FALSE,100
614131,0,102280,6000,120910,Smolensk Russia  ,54.77897005,32.04718122,FALSE,100
614131,0,75390,6000,86650,"Gaoyou (Yangzhou), JS China  ",,,TRUE,100
614131,0,140500,6000,539490,Fortaleza Brazil  ,-3.7304512,-38.5217989,FALSE,100
614131,0,288530,6000,872100,Santiago Chile  ,-33.4377968,-70.6504451,FALSE,100
614131,0,194720,6000,356630,Tainan Taiwan  ,22.9912348,120.184982,FALSE,100
614131,0,272230,6000,562160,Minsk Belarus  ,53.902334,27.5618791,FALSE,100
614131,0,193610,6000,308060,Tbilisi Georgia  ,41.6934591,44.8014495,FALSE,100
614131,0,259040,6000,891530,London United Kingdom,51.5073219,-0.1276474,FALSE,100
614131,0,202050,6000,254250,Antalya Turkey  ,36.9009641,30.6954846,FALSE,100
614131,0,104650,6000,135720,"Dongying, SD China  ",,,FALSE,100
614131,0,157620,6000,183940,"Jixi, HL China  ",,,FALSE,100
614131,0,164520,6000,314230,Joao Pessoa Brazil  ,-7.1215981,-34.882028,FALSE,100
614131,0,154390,6000,308240,Sofia Bulgaria  ,42.6978634,23.3221789,FALSE,100
614131,0,129970,6000,234530,Ribeirao Preto Brazil  ,-21.178333,-47.8066671,FALSE,100
614131,0,181220,6000,294430,Kingston Jamaica  ,17.9712148,-76.7928128,FALSE,100
614131,0,424580,6000,1193700,Bangkok Thailand  ,13.7538929,100.8160803,FALSE,100
614131,0,162360,6000,183010,"Linfen, SAX China  ",,,FALSE,100
614131,0,298470,6000,441190,Kut al Hajjal Basra,,,FALSE,100
614131,0,42030,6000,131450,"Qingyuan, GD China  ",,,FALSE,100
614131,0,765540,6000,1641030,"Tianjin, China  ",39.3032619,117.4163641,FALSE,100
614131,0,66590,6000,120660,"Rizhao, SD China  ",,,FALSE,100
614131,0,436320,6000,546920,"Rep De Chile, Leon Mexico",25.7570748,-100.2490905,FALSE,100
614131,0,175050,6000,195590,"Jiaxing, ZJ China  ",30.7474425,120.7510971,FALSE,100
614131,0,134470,6000,196220,"Shizuoka city, Japan",34.9332488,138.0955398,FALSE,100
544443.56,0,97630,7000,108150,"Udon Thani, Thailand  ",17.5211917,102.6680012,,100
544443.56,0,335690,7000,695480,"Taiyuan, SAX China  ",,,,100
544443.56,0,232360,7000,383290,"Kaduna, Nigeria",10.3825318,7.8533226,,100
544443.56,0,132320,7000,176980,"Ezhou, HUB China  ",28.912666,112.765774,,100
544443.56,0,144070,7000,202360,"Lianyungang, JS China  ",,,,100
544443.56,0,83620,7000,211900,"Taizhou, ZJ China  ",32.4614944,119.913445,,100
544443.56,0,22810,7000,101420,"Pizhou (Xuxhou), JS China  ",,,,100
544443.56,0,207540,7000,190540,Faso Bobo-Dioulasso Burkina  ,11.1719272,-4.3540333,,100
544443.56,0,464790,7000,642510,"La Paz, Bolivia  ",-16.4955455,-68.1336229,,100
544443.56,0,220270,7000,622640,Kaohsiung Taiwan  ,22.6203348,120.3120375,,100
544443.56,0,742120,7000,1666790,"Hyderabad, India  ",17.38878595,78.46106473,,100
544443.56,0,151050,7000,454920,San Salvador El Salvador  ,13.6989939,-89.1914249,,100
544443.56,0,213200,7000,375880,"Toluca, Mexico  ",19.292545,-99.6569007,,100
544443.56,0,41420,7000,106030,Blumenau Brazil  ,-26.9195567,-49.0658025,,100
544443.56,0,142310,7000,318340,Santiago Cuba  ,21.6954843,-82.7367695,,100
544443.56,0,79210,7000,32180,Guinea Malabo Equitorial,,,,100
544443.56,0,25570,7000,25560,"Berat, Albania  ",40.7018636,19.9580758,,100
544443.56,0,169090,7000,234650,Jambi Indonesia  ,-1.611572,102.779699,,100
544443.56,0,51770,7000,242550,"Raurkela, India  ",22.239252,84.81658285,,100
0,1,1170,7000,8570,"Kaduna, Nigeria  ",10.3825318,7.8533226,,100
544443.56,0,202200,7000,273190,"Bacolod, Philippines  ",10.6762836,122.9513786,,100
544443.56,0,99120,7000,402640,"Ankara, Turkey",39.9207774,32.854067,,100
544443.56,0,350140,7000,385330,"Dandong, China  ",40.5791477,124.4407146,,100
544443.56,0,228590,7000,190180,"Xalapa, Mexico  ",19.5408338,-96.9146374,,100
544443.56,0,483740,7000,587190,"Shantou, GD China  ",,,,100
544443.56,0,211110,7000,374780,"Toluca, Mexico  ",19.292545,-99.6569007,,100
544443.56,0,252130,7000,712420,Amman Jordan  ,31.9515694,35.9239625,,100
544443.56,0,82170,7000,135700,"Guigang, GX China  ",,,,100
544443.56,0,173050,7000,231380,"Chisinau, Moldova  ",47.0244707,28.8322534,,100
544443.56,0,90550,7000,148420,"Zhucheng (Weifang), SD China  ",,,,100
544443.56,0,202140,7000,241250,"Veracruz, Mexico  ",19.333333,-96.666667,,100
544443.56,0,213690,7000,257630,"Taian, SD China  ",,,,100
638005.7,0,124320,8000,168010,"Daqing, HL China  ",,,FALSE,100
638005.7,0,198310,8000,233140,Kirkuk Iraq  ,35.4701099,44.3964846,FALSE,100
638005.7,0,251270,8000,311540,Queretaro Mexico  ,20.8542575,-99.84756,FALSE,100
638005.7,0,75640,8000,96990,"Pinghu (Jiaxing), ZJ China  ",30.6782402,121.0116196,FALSE,100
638005.7,0,32480,8000,84580,"Anyang, HEN China  ",,,FALSE,100
638005.7,0,206990,8000,634430,Bamako Mali  ,12.60503275,-7.986513673,FALSE,100
638005.7,0,261960,8000,1110160,Iolio City Philippines  ,,,FALSE,100
638005.7,0,186900,8000,286030,"Fuxin, LN China  ",42.0151733,121.6452868,TRUE,100
638005.7,0,464420,8000,500150,Niamey Niger  ,13.524834,2.109823,FALSE,100
638005.7,0,240940,8000,184880,"Luzhou, SC China  ",28.9154328,105.412011,FALSE,100
638005.7,0,733160,8000,1810390,"Bangalore, India",12.9791198,77.5912997,FALSE,100
638005.7,0,504190,8000,1210880,"Chongqing, CQ China  ",,,FALSE,100
638005.7,0,224280,8000,270660,"Zigong, SC China  ",29.3409572,104.7749753,FALSE,100
638005.7,0,47650,8000,121920,Sekondi Takoradi Ghana  ,4.927456,-1.7490216,FALSE,100
638005.7,0,225520,8000,241460,Cancun Mexico  ,21.1617854,-86.8510468,FALSE,100
638005.7,0,157610,8000,218310,Genoa Italy  ,44.40726,8.9338624,FALSE,100
638005.7,0,109560,8000,469560,Medan Indonesia  ,3.5896654,98.6738261,FALSE,100
638005.7,0,96190,8000,103730,"Xinyu, JX China  ",,,FALSE,100
638005.7,0,245900,8000,241510,Coast Bouake Ivory  ,,,FALSE,100
638005.7,0,231450,8000,268850,"Santiago, Dominican Republic  ",19.4502926,-70.6906112,FALSE,100
638005.7,0,194050,8000,263880,Maceio Brazil  ,-9.6476843,-35.7339264,FALSE,100
638005.7,0,239840,8000,215420,"Kandahar Ghazi Park Kandahar, Afghanistan  ",31.60949275,65.69091171,FALSE,100
638005.7,0,610810,8000,1213680,Addis Ababa Ethiopia  ,9.0107934,38.7612525,FALSE,100
638005.7,0,171270,8000,188990,Likasi Congo  ,-11.6315018,27.5182743,FALSE,100
638005.7,0,173780,8000,281110,Cucuta Colombia  ,7.8971458,-72.5080387,FALSE,100
638005.7,0,273130,8000,539930,Shiraz Iran  ,29.6060218,52.5378041,FALSE,100
638005.7,0,87200,8000,233180,Abeokuta Nigeria  ,7.161,3.348,FALSE,100
638005.7,0,248600,8000,235540,Nyala Sudan  ,12.2809691,24.7741672,FALSE,100
638005.7,0,120790,8000,268830,Blantyre Malawi  ,-15.7862543,35.0035694,FALSE,100
638005.7,0,157590,8000,236630,"Jining, SD China  ",,,FALSE,100
586558.56,0,454110,9000,682180,"Nanning, GX China  ",,,FALSE,100
586558.56,0,211660,9000,444490,"Tangshan, HEB China  ",,,FALSE,100
586558.56,0,327010,9000,1295980,Mexico City Mexico  ,19.4326009,-99.1333416,FALSE,100
586558.56,0,114200,9000,217880,"Akola, MH India  ",20.77031765,77.19080604,FALSE,100
586558.56,0,131000,9000,219880,"Chaoyang-Chaonan (Shantou,) GD China  ",,,FALSE,100
0,1,2060,9000,4610,Herat Afghanistan  ,34.3508273,62.2164003,FALSE,100
586558.56,0,356350,9000,590240,"Coimbatore, TN India  ",11.0018115,76.9628425,FALSE,100
586558.56,0,46150,9000,62270,"Wuhu, AH China  ",31.3536127,118.4277477,TRUE,100
586558.56,0,184260,9000,125070,Bago Myanmar  ,17.336667,96.479722,FALSE,100
586558.56,0,165670,9000,314570,"Rajahmundry, AP India  ",17.0050454,81.7804732,FALSE,100
586558.56,0,179900,9000,153890,"Yining, China  ",43.9052027,81.2747797,FALSE,100
586558.56,0,129700,9000,278910,Konya Turkey  ,37.8719963,32.4844015,FALSE,100
586558.56,0,316050,9000,489410,Makassar Indonesia  ,-5.1342962,119.4124282,FALSE,100
586558.56,0,215350,9000,328190,"Guilin, GX China  ",,,FALSE,100
586558.56,0,190640,9000,136190,Tetouan Morocco  ,35.57413995,-5.365255754,FALSE,100
0,1,20,9000,110,Wahran Algeria  ,35.5428186,-0.3421804,FALSE,100
586558.56,0,296490,9000,303260,Trujillo Peru  ,-8.1116778,-79.0287742,FALSE,100
586558.56,0,74400,9000,166100, Uyo Nigeria  ,5.0322447,7.924791,FALSE,100
586558.56,0,360310,9000,553100,"Jilin, JL China  ",,,FALSE,100
586558.56,0,20340,9000,36910,Mayotte Mamoudzou France  ,-12.7821763,45.2214334,FALSE,100
586558.56,0,139570,9000,86200,Sucre Bolivia  ,-19.0477251,-65.2594306,FALSE,100
586558.56,0,270810,9000,394930,San Luis Potosí Mexico  ,22.5000001,-100.5000001,FALSE,100
586558.56,0,283440,9000,690980,Santo Domingo Dominican Republic  ,18.4801972,-69.942111,FALSE,100
586558.56,0,218640,9000,192280,Hamadan Iran  ,34.7990866,48.5148169,FALSE,100
586558.56,0,183610,9000,263830,Ulsan South Korea  ,35.5391697,129.3119136,FALSE,100
586558.56,0,296320,9000,586690,"Guiyang, GZ China  ",,,FALSE,100
586558.56,0,74500,9000,132700,"Yizing (Wuxi), JS China  ",,,FALSE,100
586558.56,0,224250,9000,292640,Kigali Rwanda  ,-1.8859597,30.1296751,FALSE,100
586558.56,0,220340,9000,322520,Bandar Lampung Indonesia  ,-5.4460713,105.2643742,FALSE,100
586558.56,0,510250,9000,867030,Caracas Venezuela,10.506098,-66.9146017,FALSE,100
565150,0,392530,10000,580790,Rabat Morocco  ,34.022405,-6.834543,FALSE,100
565150,0,60700,10000,67900,"Yiyang, HUN China  ",,,FALSE,100
565150,0,327010,10000,1295980,Mexico City Mexico  ,19.4326009,-99.1333416,FALSE,100
565150,0,283440,10000,690980,"Santo Domingo, Dominican Republic  ",18.4801972,-69.942111,FALSE,100
565150,0,65430,10000,137890,"Tengzhou (Zhaoahuang), SD China  ",,,FALSE,100
0,1,1090,10000,5220, Aba Nigeria  ,5.112735,7.364349,FALSE,100
0,1,92710,10000,417210,Colombo Sri Lankha  ,,,FALSE,100
565150,0,335170,10000,740760,Izmir Turkey  ,38.4153421,27.144474,TRUE,100
565150,0,317140,10000,376390,"Qiqihaer, HL China  ",,,FALSE,100
565150,0,74500,10000,132700,"Yizing (Wuxi), JS China  ",,,FALSE,100
565150,0,392160,10000,635150,"Ludhiana, PB India  ",30.9090157,75.851601,FALSE,100
565150,0,114200,10000,217880,"Akola, MH India  ",20.77031765,77.19080604,FALSE,100
565150,0,224250,10000,292640,Kigali Rwanda  ,-1.8859597,30.1296751,FALSE,100
565150,0,7970,10000,32650,"Huainan, AH China  ",32.5866826,117.0130019,FALSE,100
565150,0,220340,10000,230290,"Yangquan, SAX China  ",,,FALSE,100
565150,0,407150,10000,613070,"Wenzhou, ZJ China  ",24.14549,117.660807,FALSE,100
565150,0,218640,10000,192280,Hamadan Iran  ,34.7990866,48.5148169,FALSE,100
565150,0,428960,10000,1098220,Seoul-Incheon South Korea  ,37.44032425,126.7354005,FALSE,100
565150,0,59030,10000,86180,Lobito Angola  ,-12.3506867,13.5464318,FALSE,100
565150,0,163230,10000,338650,"Mangalore, KA India  ",12.8698101,74.8430082,FALSE,100
565150,0,20340,10000,36910,Mayotte Mamoudzou France  ,-12.7821763,45.2214334,FALSE,100
0,1,1290,10000,5830,Balikpapan Indonesia  ,-1.2398711,116.8593379,FALSE,100
565150,0,145770,10000,115410,Bamenda Cameroon  ,5.9614117,10.1516505,FALSE,100
565150,0,167960,10000,145080,Kolwezi Congo  ,-11.6402047,27.5182003,FALSE,100
565150,0,187580,10000,159070,Huambo Angola  ,-12.7765392,15.7320468,FALSE,100
565150,0,145900,10000,250130,Changwon South Korea  ,35.227956,128.6818586,FALSE,100
565150,0,134000,10000,151270,"Yichun, JX China  ",,,FALSE,100
565150,0,190640,10000,136190,Tetouan Morocco  ,35.57413995,-5.365255754,FALSE,100
565150,0,510250,10000,867030,Caracas Venezuela,10.506098,-66.9146017,FALSE,100
565150,0,11570,10000,31700,"Yibin, SC China  ",28.7698035,104.6185366,FALSE,100
511491.66,0,60700,11000,67900,"Yiyang, HUN China  ",,,FALSE,100
511491.66,0,253830,11000,468380,Sialkot Pakistan  ,32.4935378,74.5411575,FALSE,100
511491.66,0,414970,11000,433720,Tegucigalpa Honduras  ,14.0931919,-87.2012631,FALSE,100
511491.66,0,107760,11000,152380,"Cherthala, KL India  ",9.688784,76.3351943,FALSE,100
511491.66,0,253700,11000,204870,Karbala Iraq  ,32.4511703,43.8196617,FALSE,100
511491.66,0,200890,11000,276470,Cirebon Indonesia  ,-6.7137044,108.5608483,FALSE,100
511491.66,0,198630,11000,259530,"Tiruppur, TN India  ",11.1017815,77.345192,FALSE,100
511491.66,0,207510,11000,617240,"Visakhapatnam, AP India  ",17.7231276,83.3012842,TRUE,100
511491.66,0,269080,11000,270930,"Yueyang, HUN China  ",,,FALSE,100
511491.66,0,332820,11000,647040,"Bhopal, MP India  ",23.2530923,77.3962718,FALSE,100
511491.66,0,163890,11000,287480,Abuja Nigeria  ,9.0643305,7.4892974,FALSE,100
511491.66,0,89080,11000,117890,"Wenling (Taizhou), ZJ China  ",28.3754144,121.3812013,FALSE,100
511491.66,0,343760,11000,521230,"Erode, TN India  ",11.3306483,77.7276519,FALSE,100
511491.66,0,311860,11000,269920,Mersin Turkey  ,36.8117583,34.6292679,FALSE,100
511491.66,0,107610,11000,106070,Poza Rica Mexico  ,20.5320852,-97.4536355,FALSE,100
511491.66,0,80420,11000,77170,Timor Dili East,-8.5554146,125.5789931,FALSE,100
511491.66,0,202720,11000,310120,Ilorin Nigeria,8.4963657,4.5480484,FALSE,100
511491.66,0,154680,11000,187890,Hamhung North Korea  ,39.915463,127.5439794,FALSE,100
511491.66,0,342380,11000,350850,Cartagena Colombia,10.4195841,-75.5271224,FALSE,100
511491.66,0,151180,11000,165120,Villahermosa Mexico  ,20.738333,-98.0725,FALSE,100
511491.66,0,289530,11000,331340,"Pingdingshan, HEN China  ",,,FALSE,100
511491.66,0,306190,11000,518910,Antananarivo Madagascar  ,-18.9100122,47.5255809,FALSE,100
511491.66,0,312870,11000,220020,Chiclayo Peru  ,-6.7993953,-79.4943176,FALSE,100
511491.66,0,134360,11000,186080,"Mathura, UP India  ",27.4955539,77.6855554,FALSE,100
511491.66,0,264320,11000,331980,Leone Freetown Sierra  ,8.479004,-13.26795,FALSE,100
511491.66,0,243320,11000,289550,Nouakchott Mauritania  ,18.0792379,-15.9780071,FALSE,100
511491.66,0,150840,11000,184200,"Weihai, SD China  ",,,FALSE,100
511491.66,0,255080,11000,411730,"Srinagar, JK India  ",34.0747444,74.8204443,FALSE,100
511491.66,0,136930,11000,236130,"Tirunelveli, TN India  ",8.7295261,77.6852354,FALSE,100
511491.66,0,285840,11000,215860,Nampo North Korea  ,38.78004535,125.3604658,FALSE,100
856398.8,0,106660,12000,197170,Enugu Nigeria  ,6.4499833,7.5000007,FALSE,100
856398.8,0,35250,12000,103310,Poza Rica Mexico  ,20.5320852,-97.4536355,FALSE,100
856398.8,0,289940,12000,440680,Gwangju South Korea  ,35.1595775,126.8515089,FALSE,100
856398.8,0,525200,12000,949190,Casablanca Morocco  ,33.5675527,-7.618756607,FALSE,100
856398.8,0,197030,12000,712940,Cebu Philippines  ,10.45,123.84,FALSE,100
856398.8,0,86930,12000,115150,Oyo Nigeria  ,8.2151249,3.5642897,FALSE,100
0,1,8190,12000,14280,Tarsus Turkey  ,37.03060595,34.8778134,FALSE,100
0,1,4630,12000,14840,Lima Peru  ,19.707857,-101.1569992,TRUE,100
0,1,0,12000,0,Karbala Iraq  ,32.4511703,43.8196617,FALSE,100
856398.8,0,87650,12000,202850,Conakry Guinea  ,9.5170602,-13.6998434,FALSE,100
856398.8,0,272090,12000,509640,"Hubli, KL India  ",15.3518378,75.1379848,FALSE,100
856398.8,0,336630,12000,514160,"Mysore, KA India  ",12.3051828,76.6553609,FALSE,100
856398.8,0,245650,12000,236500,Sheikhupura Pakistan  ,31.7085285,73.9864014,FALSE,100
0,1,5930,12000,35350,"Raipur, CH India  ",20.6985098,82.16025841,FALSE,100
0,1,1410,12000,34000,Zaria Nigeria  ,11.1134917,7.7188449,FALSE,100
856398.8,0,749660,12000,1205520,"Sangali, MH India  ",16.8813353,74.5836848,FALSE,100
856398.8,0,1062430,12000,2628350,"Kolkata, WB India  ",22.5677459,88.3476023,FALSE,100
856398.8,0,99640,12000,194170,"Bokaro Steel City, JH India  ",23.6579303,86.0845069,FALSE,100
856398.8,0,105610,12000,122470,"Loudi, HUN China  ",,,FALSE,100
856398.8,0,186130,12000,493360,Daejon South Korea  ,36.3496,127.3848,FALSE,100
856398.8,0,332820,12000,647040,"Bhopal, MP India  ",23.2530923,77.3962718,FALSE,100
856398.8,0,418820,12000,872380,"Delhi, DL-UP-HR India  ",28.5128083,77.0931331,FALSE,100
856398.8,0,414970,12000,433720,Tegucigalpa Honduras  ,14.0931919,-87.2012631,FALSE,100
856398.8,0,175300,12000,205340,Sylhet Bangladesh  ,24.4932874,91.7085743,FALSE,100
856398.8,0,122670,12000,146800,"Haicheng (Anshan), LN China  ",40.8518336,122.7433343,FALSE,100
856398.8,0,747830,12000,1558160,"Pune, MH India  ",18.5203062,73.8543185,FALSE,100
856398.8,0,302770,12000,742170,Guayaquil Ecuador  ,-2.1898771,-79.8877153,FALSE,100
856398.8,0,110860,12000,200400,Naga City Philippines  ,13.6403192,123.240651,FALSE,100
856398.8,0,282250,12000,396860,Davao City Philippines ,7.0645241,125.6084143,FALSE,100
856398.8,0,46860,12000,239990,"Tiruppur, TN India  ",11.1017815,77.345192,FALSE,100
476762.5,0,279070,13000,425760,"Gorakhpur, UP India  ",26.916667,83.25,FALSE,100
476762.5,0,206970,13000,329770,Mombasa Kenya  ,-4.0390146,39.64839096,FALSE,100
476762.5,0,65030,13000,112570,"Vasai-Virar, MH India  ",19.4258788,72.8224901,FALSE,100
0,1,8190,13000,14280,Tarsus Turkey  ,37.03060595,34.8778134,FALSE,100
476762.5,0,189140,13000,207460,"Jalgaon, MH India  ",21.0137606,75.5627048,FALSE,100
476762.5,0,272500,13000,260450,Meknes Morocco  ,33.8978116,-5.5319836,FALSE,100
476762.5,0,289940,13000,440680,Gwangju South Korea  ,35.1595775,126.8515089,FALSE,100
476762.5,0,181870,13000,234960,"Jamnagar, GJ India  ",22.25,70,TRUE,100
476762.5,0,282250,13000,396860,Davao City Philippines  ,7.0645241,125.6084143,FALSE,100
476762.5,0,349820,13000,547290,"Bhubaneswar, OR India  ",20.2665668,85.8437586,FALSE,100
476762.5,0,234430,13000,484280,"Amritsar, PB India  ",31.6343083,74.8736788,FALSE,100
476762.5,0,208280,13000,483930,"Jamshedpur, JH India  ",22.8015194,86.2029579,FALSE,100
476762.5,0,149120,13000,153060,Djibouti Djibouti ,11.8145966,42.8453061,FALSE,100
0,1,3460,13000,20350,Mandalay Myanmar  ,21.9812746,96.082375,FALSE,100
476762.5,0,55730,13000,109510,"Kayamkulam, KL India  ",9.1721357,76.5008336,FALSE,100
476762.5,0,267070,13000,410030,"Bareilly, UP India  ",28.3523609,79.4096542,FALSE,100
476762.5,0,86220,13000,370490,"Tiruchirappalli, TN India  ",10.804973,78.6870296,FALSE,100
476762.5,0,83000,13000,211340,"Dhanbad, JH India  ",23.7952809,86.4309638,FALSE,100
476762.5,0,128600,13000,173910,"Cangnan (Wenzhou), ZJ China  ",27.5184046,120.4232915,FALSE,100
476762.5,0,88050,13000,116360,"Lufeng (Shanwei), GD China  ",,,FALSE,100
476762.5,0,98380,13000,438630,"Thiruvananthapuram, KL India  ",8.5058909,76.9570481,FALSE,100
476762.5,0,217130,13000,302270,Banjarmasin Indonesia  ,-3.3187496,114.5925828,FALSE,100
476762.5,0,81270,13000,109250,Antofagasta Chile  ,-23.6463741,-70.3980033,FALSE,100
476762.5,0,179920,13000,248340,Sukkur Pakistan  ,27.6961883,68.8588754,FALSE,100
476762.5,0,193520,13000,372060,"Cuttack, OR India  ",20.4686,85.8792,FALSE,100
476762.5,0,245650,13000,236500,Sheikhupura Pakistan  ,31.7085285,73.9864014,FALSE,100
476762.5,0,278570,13000,274920,"Jiamusi, HL China  ",,,FALSE,100
476762.5,0,313300,13000,344020,"Zhanjiang, GD China  ",,,FALSE,100
476762.5,0,8350,13000,29320,Lilongwe Malawi  ,-13.973456,33.7878122,FALSE,100
476762.5,0,261380,13000,230770,Pereira Colombia  ,4.8142912,-75.6946451,FALSE,100
655910.8,0,261790,14000,688920,Lagos Nigeria  ,6.4550575,3.3941795,FALSE,100
655910.8,0,208280,14000,483930,"Jamshedpur, JH India  ",22.8015194,86.2029579,FALSE,100
655910.8,0,23060,14000,79580,Khulna Bangladesh  ,22.9372087,89.2852741,FALSE,100
655910.8,0,649980,14000,735520,Douala Cameroon  ,4.0537386,9.664436579,FALSE,100
655910.8,0,98380,14000,438630,"Thiruvananthapuram, KL India  ",8.5058909,76.9570481,FALSE,100
655910.8,0,136370,14000,149230,"Deyang, SC China  ",,,FALSE,100
655910.8,0,291220,14000,358570,Sargodha Pakistan  ,32.0898005,72.6782574,FALSE,100
0,1,560,14000,2710,Al-Hasakah Syria  ,36.5013738,40.7469948,TRUE,100
655910.8,0,278570,14000,274920,"Jiamusi, HL China  ",,,FALSE,100
655910.8,0,146730,14000,227060,"Chifeng, NM China  ",,,FALSE,100
655910.8,0,326640,14000,678080,"Vadodara, GJ India  ",22.297076,73.1957373,FALSE,100
0,1,10510,14000,30910,"Wanzhou, CQ China  ",,,FALSE,100
655910.8,0,149120,14000,153060,Djibouti Djibouti  ,11.8145966,42.8453061,FALSE,100
655910.8,0,80280,14000,46870,"Yichun, HL China  ",,,FALSE,100
655910.8,0,88050,14000,116360,"Lufeng (Shanwei), GD China  ",,,FALSE,100
0,1,620,14000,2440,Zamboanga Philippines  ,6.9046004,122.0763695,FALSE,100
655910.8,0,606840,14000,982050,Damascus Syria  ,33.5130695,36.3095814,FALSE,100
0,1,8690,14000,34440,Kano Nigeria  ,11.9918671,8.5303654,FALSE,100
655910.8,0,349820,14000,547290,"Bhubaneswar, OR India  ",20.2665668,85.8437586,FALSE,100
655910.8,0,561270,14000,777580,Yaounde Cameroon  ,3.8689867,11.5213344,FALSE,100
655910.8,0,427610,14000,520610,Marrakech Morocco  ,31.6258257,-7.9891608,FALSE,100
0,1,16440,14000,55460,Da Nang Vietnam ,16.068,108.212,FALSE,100
0,1,3460,14000,20350,Mandalay Myanmar  ,21.9812746,96.082375,FALSE,100
655910.8,0,161750,14000,214310,"Jhansi, UP India  ",25.4502464,78.5800085,FALSE,100
655910.8,0,279070,14000,425760,"Gorakhpur, UP India  ",26.916667,83.25,FALSE,100
655910.8,0,127560,14000,239030,Bogra Bangladesh  ,24.8480859,89.3729529,FALSE,100
655910.8,0,193520,14000,372060,"Cuttack, OR India  ",20.4686,85.8792,FALSE,100
655910.8,0,181870,14000,234960,"Jamnagar, GJ India  ",22.25,70,FALSE,100
655910.8,0,501210,14000,402170,Fez Morocco  ,34.0346534,-5.0161926,FALSE,100
655910.8,0,188030,14000,278290,"Belgaum, KA India  ",15.8572666,74.5069343,FALSE,100
865174.8,0,109550,15000,131810,"Fuzhou, JX China  ",,,FALSE,100
865174.8,0,82400,15000,155370,"Huai'an, JS China  ",,,FALSE,100
865174.8,0,74660,15000,287630,Port Harcourt Nigeria  ,4.7676576,7.0188527,FALSE,100
865174.8,0,491060,15000,895510,"Agra, UP India  ",27.1752554,78.0098161,FALSE,100
865174.8,0,425690,15000,676390,Peshawar Pakistan  ,34.0123846,71.5787458,FALSE,100
865174.8,0,649980,15000,735520,Douala Cameroon  ,4.0537386,9.664436579,FALSE,100
865174.8,0,136370,15000,149230,"Deyang, SC China  ",,,FALSE,100
865174.8,0,501210,15000,402170,Fez Morocco  ,34.0346534,-5.0161926,TRUE,100
865174.8,0,427610,15000,520610,Marrakech Morocco  ,31.6258257,-7.9891608,FALSE,100
0,1,96490,15000,192150,"Luohe, HEN China  ",,,FALSE,100
865174.8,0,231100,15000,305040,"Amravati, MH India  ",21.0857492,77.666978,FALSE,100
0,1,16440,15000,55460,Da Nang Vietnam  ,16.068,108.212,FALSE,100
0,1,620,15000,2440,Zamboanga Philippines  ,6.9046004,122.0763695,FALSE,100
865174.8,0,240580,15000,282780,Bahawalpur Pakistan  ,29.394644,71.6638747,FALSE,100
865174.8,0,849500,15000,2190860,Manila Philippines  ,14.5906216,120.9799696,FALSE,100
865174.8,0,660720,15000,1035030,Medellín Colombia  ,6.2443382,-75.573553,FALSE,100
0,1,320870,15000,491420,"Guwahati, AS India  ",26.1805978,91.753943,FALSE,100
865174.8,0,304810,15000,545820,"Nashik, MH India  ",20.216667,74.083333,FALSE,100
865174.8,0,475840,15000,762210,"Bhiwandi, MH India  ",19.3025562,73.0588072,FALSE,100
865174.8,0,651710,15000,1235700,Coast Abidjan Ivory  ,5.2920621,-3.995228,FALSE,100
0,1,2350,15000,23720,"Gulbarga, KA India  ",17.3310003,76.8334228,FALSE,100
865174.8,0,146730,15000,227060,"Chifeng, NM China  ",,,FALSE,100
865174.8,0,267530,15000,589200,"Varanasi, UP India  ",25.3356491,83.0076292,FALSE,100
865174.8,0,23060,15000,79580,Khulna Bangladesh  ,22.9372087,89.2852741,FALSE,100
865174.8,0,277920,15000,324320,Al Mansurah Egypt  ,31.037566,31.38649,FALSE,100
865174.8,0,326640,15000,678080,"Vadodara, GJ India  ",22.297076,73.1957373,FALSE,100
865174.8,0,115550,15000,199140,"Nellore, AP India  ",14.4493717,79.9873763,FALSE,100
865174.8,0,47910,15000,300930,Hai Phong Vietnam  ,20.858864,106.6749591,FALSE,100
865174.8,0,261790,15000,688920,Lagos Nigeria  ,6.4550575,3.3941795,FALSE,100
865174.8,0,193330,15000,257210,Samarinda Indonesia  ,-0.5017804,117.1393089,FALSE,100
